#version,serial,flight,call,time,rssi,lqi,acceleration,pressure,altitude,height,speed,temperature,drogue_voltage,main_voltage,battery_voltage,accel_x,accel_y,accel_z,gyro_roll,gyro_pitch,gyro_yaw,mag_x,mag_y,mag_z,tilt,pyro,igniter_a,igniter_b,igniter_c,igniter_d,connected,locked,nsat,latitude,longitude,altitude,year,month,day,hour,minute,second,pad_dist,pad_range,pad_az,pad_el,pdop,hdop,vdop,sat01,sat02,sat03,sat04,sat05,sat06,sat07,sat08,sat09,sat10,sat11,sat12,sat13,sat14,sat15,sat16,sat17,sat18,sat19,sat20,sat21,sat22,sat23,sat24,sat25,sat26,sat27,sat28,sat29,sat30,sat31,sat32
6, 10988, 1,KM4LKS,     0.00, -46,   8,    0.50, 100601.00,   60.44,   -0.75,    0.26, 26.2, 0.00, 0.00, 4.08,   9.84,   0.37,   0.04,   0.00,  -0.12,  -0.06,   0.04,  -0.41,  -0.00,   2.00, 4.09, 0.00, 0.00, 0.00, 0.00, 1, 0,  0,  47.5234650,-122.3485616,   126.0, 2023,  6,  3, 23, 15,  9,        0,        0,   0,   0,  23.1,  23.1,  23.1,  0,  0,  0,  0,  0,  0,  0,  0,  0, 30,  0,  0, 13,  0, 27,  8,  0, 31,  0,  0,  0,  0, 18,  0,  0, 16, 24,  0, 13,  0,  0,  0
6, 10988, 1,KM4LKS,     0.03, -46,   6,    0.50, 100601.00,   60.44,   -0.75,    0.26, 26.2, 0.00, 0.00, 4.08,   9.84,   0.37,   0.04,   0.00,  -0.12,  -0.06,   0.04,  -0.41,  -0.00,   2.00, 4.09, 0.00, 0.00, 0.00, 0.00, 1, 0,  0,  47.5234650,-122.3485616,   126.0, 2023,  6,  3, 23, 15,  9,        0,        0,   0,   0,  23.1,  23.1,  23.1,  0,  0,  0,  0,  0,  0,  0,  0,  0, 30,  0,  0, 13,  0, 27,  8,  0, 31,  0,  0,  0,  0, 18,  0,  0, 16, 24,  0, 13,  0,  0,  0
6, 10988, 1,KM4LKS,     0.63, -46,  11,    0.50, 100601.00,   60.44,   -0.75,    0.26, 26.2, 0.00, 0.00, 4.08,   9.84,   0.37,   0.04,   0.00,  -0.12,  -0.06,   0.04,  -0.41,  -0.00,   2.00, 4.09, 0.00, 0.00, 0.00, 0.00, 1, 0,  0,  47.5234650,-122.3485616,   126.0, 2023,  6,  3, 23, 15,  9,        0,        0,   0,   0,  23.1,  23.1,  23.1,  0,  0,  0,  0,  0,  0,  0,  0,  0, 30,  0,  0, 13,  0, 27,  8,  0, 31,  0,  0,  0,  0, 18,  0,  0, 16, 24,  0, 13,  0,  0,  0
6, 10988, 1,KM4LKS,     0.63, -46,   7,    0.50, 100601.00,   60.44,   -0.75,    0.26, 26.2, 0.00, 0.00, 4.08,   9.84,   0.37,   0.04,   0.00,  -0.12,  -0.06,   0.04,  -0.41,  -0.00,   2.00, 4.09, 0.00, 0.00, 0.00, 0.00, 1, 0,  0,  47.5234650,-122.3485616,   126.0, 2023,  6,  3, 23, 15,  9,        0,        0,   0,   0,  23.1,  23.1,  23.1,  0,  0,  0,  0,  0,  0,  0,  0,  0, 30,  0,  0, 13,  0, 27,  8,  0, 31,  0,  0,  0,  0, 18,  0,  0, 16, 24,  0, 13,  0,  0,  0
6, 10988, 1,KM4LKS,     1.00, -46,   9,    1.01, 100597.00,   60.78,   -0.42,    0.12, 26.2, 0.00, 0.00, 4.08,   9.86,   0.38,   0.02,   0.18,  -0.06,   0.12,   0.04,  -0.41,  -0.00,   2.00, 4.09, 0.00, 0.00, 0.00, 0.00, 1, 0,  0,  47.5234650,-122.3485616,   126.0, 2023,  6,  3, 23, 15,  9,        0,        0,   0,   0,  23.1,  23.1,  23.1,  0,  0,  0,  0,  0,  0,  0,  0,  0, 30,  0,  0, 13,  0, 27,  8,  0, 31,  0,  0,  0,  0, 18,  0,  0, 16, 24,  0, 13,  0,  0,  0
6, 10988, 1,KM4LKS,     1.03, -46,   5,    1.01, 100597.00,   60.78,   -0.42,    0.12, 26.2, 0.00, 0.00, 4.08,   9.86,   0.38,   0.02,   0.18,  -0.06,   0.12,   0.04,  -0.41,  -0.00,   2.00, 4.09, 0.00, 0.00, 0.00, 0.00, 1, 0,  0,  47.5234650,-122.3485616,   126.0, 2023,  6,  3, 23, 15,  9,        0,        0,   0,   0,  23.1,  23.1,  23.1,  0,  0,  0,  0,  0,  0,  0,  0,  0, 30,  0,  0, 13,  0, 27,  8,  0, 31,  0,  0,  0,  0, 18,  0,  0, 16, 24,  0, 13,  0,  0,  0
6, 10988, 1,KM4LKS,     1.63, -46,   6,    1.01, 100597.00,   60.78,   -0.42,    0.12, 26.2, 0.00, 0.00, 4.08,   9.86,   0.38,   0.02,   0.18,  -0.06,   0.12,   0.04,  -0.41,  -0.00,   2.00, 4.09, 0.00, 0.00, 0.00, 0.00, 1, 0,  0,  47.5234650,-122.3485616,   126.0, 2023,  6,  3, 23, 15,  9,        0,        0,   0,   0,  23.1,  23.1,  23.1,  0,  0,  0,  0,  0,  0,  0,  0,  0,  0,  0,  0,  0,  0,  0,  0,  0,  0,  0,  0,  0,  0,  0,  0,  0,  0,  0,  0,  0,  0,  0,  0
6, 10988, 1,KM4LKS,     1.63, -46,   8,    1.01, 100597.00,   60.78,   -0.42,    0.12, 26.2, 0.00, 0.00, 4.08,   9.86,   0.38,   0.02,   0.18,  -0.06,   0.12,   0.04,  -0.41,  -0.00,   2.00, 4.09, 0.00, 0.00, 0.00, 0.00, 1, 0,  0,  47.5234650,-122.3485616,   126.0, 2023,  6,  3, 23, 15,  9,        0,        0,   0,   0,  23.1,  23.1,  23.1,  0,  0,  0,  0,  0,  0,  0,  0,  0,  0,  0,  0,  0,  0,  0,  0,  0,  0,  0,  0,  0,  0,  0,  0,  0,  0,  0,  0,  0,  0,  0,  0
6, 10988, 1,KM4LKS,     1.63, -46,   7,    1.01, 100597.00,   60.78,   -0.42,    0.12, 26.2, 0.00, 0.00, 4.08,   9.86,   0.38,   0.02,   0.18,  -0.06,   0.12,   0.04,  -0.41,  -0.00,   2.00, 4.09, 0.00, 0.00, 0.00, 0.00, 1, 0,  0,  47.5234650,-122.3485616,   126.0, 2023,  6,  3, 23, 15,  9,        0,        0,   0,   0,  23.1,  23.1,  23.1,  0,  0,  0,  0,  0,  0,  0,  0,  0,  0,  0,  0,  0,  0,  0,  0,  0,  0,  0,  0,  0,  0,  0,  0,  0,  0,  0,  0,  0,  0,  0,  0
6, 10988, 1,KM4LKS,     2.01, -46,   8,   -0.00, 100593.00,   61.11,   -0.08,   -0.23, 26.3, 0.00, 0.00, 4.08,   9.86,   0.42,   0.12,  -0.06,   0.00,   0.12,   0.04,  -0.41,  -0.00,   2.00, 4.09, 0.00, 0.00, 0.00, 0.00, 1, 0,  0,  47.5234650,-122.3485616,   126.0, 2023,  6,  3, 23, 15,  9,        0,        0,   0,   0,  23.1,  23.1,  23.1,  0,  0,  0,  0,  0,  0,  0,  0,  0,  0,  0,  0,  0,  0,  0,  0,  0,  0,  0,  0,  0,  0,  0,  0,  0,  0,  0,  0,  0,  0,  0,  0
6, 10988, 1,KM4LKS,     2.04, -46,   6,   -0.00, 100593.00,   61.11,   -0.08,   -0.23, 26.3, 0.00, 0.00, 4.08,   9.86,   0.42,   0.12,  -0.06,   0.00,   0.12,   0.04,  -0.41,  -0.00,   2.00, 4.08, 0.00, 0.00, 0.00, 0.00, 1, 0,  0,  47.5234650,-122.3485616,   126.0, 2023,  6,  3, 23, 15,  9,        0,        0,   0,   0,  23.1,  23.1,  23.1,  0,  0,  0,  0,  0,  0,  0,  0,  0,  0,  0,  0,  0,  0,  0,  0,  0,  0,  0,  0,  0,  0,  0,  0,  0,  0,  0,  0,  0,  0,  0,  0
6, 10988, 1,KM4LKS,     2.63, -45,   6,   -0.00, 100593.00,   61.11,   -0.08,   -0.23, 26.3, 0.00, 0.00, 4.08,   9.86,   0.42,   0.12,  -0.06,   0.00,   0.12,   0.04,  -0.41,  -0.00,   2.00, 4.08, 0.00, 0.00, 0.00, 0.00, 1, 0,  0,  47.5234650,-122.3485616,   126.0, 2023,  6,  3, 23, 15,  9,        0,        0,   0,   0,  23.1,  23.1,  23.1,  0,  0,  0,  0,  0,  0,  0,  0,  0,  0,  0,  0,  0,  0,  0,  0,  0,  0,  0,  0,  0,  0,  0,  0,  0,  0,  0,  0,  0,  0,  0,  0
6, 10988, 1,KM4LKS,     2.63, -46,   7,   -0.00, 100593.00,   61.11,   -0.08,   -0.23, 26.3, 0.00, 0.00, 4.08,   9.86,   0.42,   0.12,  -0.06,   0.00,   0.12,   0.04,  -0.41,  -0.00,   2.00, 4.08, 0.00, 0.00, 0.00, 0.00, 1, 0,  0,  47.5234650,-122.3485616,   126.0, 2023,  6,  3, 23, 15,  9,        0,        0,   0,   0,  23.1,  23.1,  23.1,  0,  0,  0,  0,  0,  0,  0,  0,  0,  0,  0,  0,  0,  0,  0,  0,  0,  0,  0,  0,  0,  0,  0,  0,  0,  0,  0,  0,  0,  0,  0,  0
6, 10988, 1,KM4LKS,     3.02, -45,   7,   -1.01, 100600.00,   60.53,   -0.67,   -0.10, 26.3, 0.00, 0.00, 4.08,   9.87,   0.37,   0.00,   0.31,  -0.24,   0.06,   0.04,  -0.41,   0.00,   2.00, 4.08, 0.00, 0.00, 0.00, 0.00, 1, 0,  0,  47.5234650,-122.3485616,   126.0, 2023,  6,  3, 23, 15,  9,        0,        0,   0,   0,  23.1,  23.1,  23.1,  0,  0,  0,  0,  0,  0,  0,  0,  0,  0,  0,  0,  0,  0,  0,  0,  0,  0,  0,  0,  0,  0,  0,  0,  0,  0,  0,  0,  0,  0,  0,  0
6, 10988, 1,KM4LKS,     3.05, -45,   9,   -1.01, 100600.00,   60.53,   -0.67,   -0.10, 26.3, 0.00, 0.00, 4.08,   9.87,   0.37,   0.00,   0.31,  -0.24,   0.06,   0.04,  -0.41,   0.00,   2.00, 4.09, 0.00, 0.00, 0.00, 0.00, 1, 0,  0,  47.5234650,-122.3485616,   126.0, 2023,  6,  3, 23, 15,  9,        0,        0,   0,   0,  23.1,  23.1,  23.1,  0,  0,  0,  0,  0,  0,  0,  0,  0,  0,  0,  0,  0,  0,  0,  0,  0,  0,  0,  0,  0,  0,  0,  0,  0,  0,  0,  0,  0,  0,  0,  0
6, 10988, 1,KM4LKS,     3.63, -46,   8,   -1.01, 100600.00,   60.53,   -0.67,   -0.10, 26.3, 0.00, 0.00, 4.08,   9.87,   0.37,   0.00,   0.31,  -0.24,   0.06,   0.04,  -0.41,   0.00,   2.00, 4.09, 0.00, 0.00, 0.00, 0.00, 1, 0,  0,  47.5234650,-122.3485616,   126.0, 2023,  6,  3, 23, 15,  9,        0,        0,   0,   0,  23.1,  23.1,  23.1,  0,  0,  0,  0,  0,  0,  0,  0,  0,  0,  0,  0,  0,  0,  0,  0,  0,  0,  0,  0,  0,  0,  0,  0,  0,  0,  0,  0,  0,  0,  0,  0
6, 10988, 1,KM4LKS,     3.63, -46,   6,   -1.01, 100600.00,   60.53,   -0.67,   -0.10, 26.3, 0.00, 0.00, 4.08,   9.87,   0.37,   0.00,   0.31,  -0.24,   0.06,   0.04,  -0.41,   0.00,   2.00, 4.09, 0.00, 0.00, 0.00, 0.00, 1, 0,  0,  47.5234650,-122.3485616,   126.0, 2023,  6,  3, 23, 15,  9,        0,        0,   0,   0,  23.1,  23.1,  23.1,  0,  0,  0,  0,  0,  0,  0,  0,  0,  0,  0,  0,  0,  0,  0,  0,  0,  0,  0,  0,  0,  0,  0,  0,  0,  0,  0,  0,  0,  0,  0,  0
6, 10988, 1,KM4LKS,     4.03, -46,   5,   -0.50, 100600.00,   60.53,   -0.67,    0.07, 26.3, 0.00, 0.00, 4.08,   9.86,   0.38,   0.06,   0.12,  -0.06,  -0.06,   0.04,  -0.41,  -0.00,   2.00, 4.09, 0.00, 0.00, 0.00, 0.00, 1, 0,  0,  47.5234650,-122.3485616,   126.0, 2023,  6,  3, 23, 15,  9,        0,        0,   0,   0,  23.1,  23.1,  23.1,  0,  0,  0,  0,  0,  0,  0,  0,  0,  0,  0,  0,  0,  0,  0,  0,  0,  0,  0,  0,  0,  0,  0,  0,  0,  0,  0,  0,  0,  0,  0,  0
6, 10988, 1,KM4LKS,     4.06, -46,   7,   -0.50, 100600.00,   60.53,   -0.67,    0.07, 26.3, 0.00, 0.00, 4.08,   9.86,   0.38,   0.06,   0.12,  -0.06,  -0.06,   0.04,  -0.41,  -0.00,   2.00, 4.09, 0.00, 0.00, 0.00, 0.00, 1, 0,  0,  47.5234650,-122.3485616,   126.0, 2023,  6,  3, 23, 15,  9,        0,        0,   0,   0,  23.1,  23.1,  23.1,  0,  0,  0,  0,  0,  0,  0,  0,  0,  0,  0,  0,  0,  0,  0,  0,  0,  0,  0,  0,  0,  0,  0,  0,  0,  0,  0,  0,  0,  0,  0,  0
6, 10988, 1,KM4LKS,     4.63, -46,   8,   -0.50, 100600.00,   60.53,   -0.67,    0.07, 26.3, 0.00, 0.00, 4.08,   9.86,   0.38,   0.06,   0.12,  -0.06,  -0.06,   0.04,  -0.41,  -0.00,   2.00, 4.09, 0.00, 0.00, 0.00, 0.00, 1, 0,  0,  47.5234650,-122.3485616,   126.0, 2023,  6,  3, 23, 15,  9,        0,        0,   0,   0,  23.1,  23.1,  23.1,  0,  0,  0,  0,  0,  0,  0,  0,  0,  0,  0,  0,  0,  0,  0,  0,  0,  0,  0,  0,  0,  0,  0,  0,  0,  0,  0,  0,  0,  0,  0,  0
6, 10988, 1,KM4LKS,     4.63, -46,   7,   -0.50, 100600.00,   60.53,   -0.67,    0.07, 26.3, 0.00, 0.00, 4.08,   9.86,   0.38,   0.06,   0.12,  -0.06,  -0.06,   0.04,  -0.41,  -0.00,   2.00, 4.09, 0.00, 0.00, 0.00, 0.00, 1, 0,  0,  47.5234650,-122.3485616,   126.0, 2023,  6,  3, 23, 15,  9,        0,        0,   0,   0,  23.1,  23.1,  23.1,  0,  0,  0,  0,  0,  0,  0,  0,  0,  0,  0,  0,  0,  0,  0,  0,  0,  0,  0,  0,  0,  0,  0,  0,  0,  0,  0,  0,  0,  0,  0,  0
6, 10988, 1,KM4LKS,     5.04, -46,  12,    1.51, 100598.00,   60.69,   -0.50,   -0.04, 26.3, 0.00, 0.00, 4.08,   9.86,   0.39,   0.04,   0.06,  -0.12,   0.24,   0.04,  -0.41,  -0.00,   2.00, 4.09, 0.00, 0.00, 0.00, 0.00, 1, 0,  0,  47.5234650,-122.3485616,   126.0, 2023,  6,  3, 23, 15,  9,        0,        0,   0,   0,  23.1,  23.1,  23.1,  0,  0,  0,  0,  0,  0,  0,  0,  0,  0,  0,  0,  0,  0,  0,  0,  0,  0,  0,  0,  0,  0,  0,  0,  0,  0,  0,  0,  0,  0,  0,  0
6, 10988, 1,KM4LKS,     5.07, -46,   6,    1.51, 100598.00,   60.69,   -0.50,   -0.04, 26.3, 0.00, 0.00, 4.08,   9.86,   0.39,   0.04,   0.06,  -0.12,   0.24,   0.04,  -0.41,  -0.00,   2.00, 4.09, 0.00, 0.00, 0.00, 0.00, 1, 0,  0,  47.5234650,-122.3485616,   126.0, 2023,  6,  3, 23, 15,  9,        0,        0,   0,   0,  23.1,  23.1,  23.1,  0,  0,  0,  0,  0,  0,  0,  0,  0,  0,  0,  0,  0,  0,  0,  0,  0,  0,  0,  0,  0,  0,  0,  0,  0,  0,  0,  0,  0,  0,  0,  0
6, 10988, 1,KM4LKS,     5.63, -46,   4,    1.51, 100598.00,   60.69,   -0.50,   -0.04, 26.3, 0.00, 0.00, 4.08,   9.86,   0.39,   0.04,   0.06,  -0.12,   0.24,   0.04,  -0.41,  -0.00,   2.00, 4.09, 0.00, 0.00, 0.00, 0.00, 1, 0,  0,  47.5234650,-122.3485616,   126.0, 2023,  6,  3, 23, 15,  9,        0,        0,   0,   0,  23.1,  23.1,  23.1,  0,  0,  0,  0,  0,  0,  0,  0,  0,  0,  0,  0,  0,  0,  0,  0,  0,  0,  0,  0,  0,  0,  0,  0,  0,  0,  0,  0,  0,  0,  0,  0
6, 10988, 1,KM4LKS,     5.63, -46,   7,    1.51, 100598.00,   60.69,   -0.50,   -0.04, 26.3, 0.00, 0.00, 4.08,   9.86,   0.39,   0.04,   0.06,  -0.12,   0.24,   0.04,  -0.41,  -0.00,   2.00, 4.09, 0.00, 0.00, 0.00, 0.00, 1, 0,  0,  47.5234650,-122.3485616,   126.0, 2023,  6,  3, 23, 15,  9,        0,        0,   0,   0,  23.1,  23.1,  23.1,  0,  0,  0,  0,  0,  0,  0,  0,  0,  0,  0,  0,  0,  0,  0,  0,  0,  0,  0,  0,  0,  0,  0,  0,  0,  0,  0,  0,  0,  0,  0,  0
6, 10988, 1,KM4LKS,     6.05, -46,  11,   -2.01, 100599.00,   60.61,   -0.59,   -0.11, 26.4, 0.00, 0.00, 4.08,   9.87,   0.40,   0.04,  -0.06,   0.00,   0.06,   0.04,  -0.41,   0.00,   2.00, 4.09, 0.00, 0.00, 0.00, 0.00, 1, 0,  0,  47.5234650,-122.3485616,   126.0, 2023,  6,  3, 23, 15,  9,        0,        0,   0,   0,  23.1,  23.1,  23.1,  0,  0,  0,  0,  0,  0,  0,  0,  0,  0,  0,  0,  0,  0,  0,  0,  0,  0,  0,  0,  0,  0,  0,  0,  0,  0,  0,  0,  0,  0,  0,  0
6, 10988, 1,KM4LKS,     6.08, -46,   6,   -2.01, 100599.00,   60.61,   -0.59,   -0.11, 26.4, 0.00, 0.00, 4.08,   9.87,   0.40,   0.04,  -0.06,   0.00,   0.06,   0.04,  -0.41,   0.00,   2.00, 4.08, 0.00, 0.00, 0.00, 0.00, 1, 0,  0,  47.5234650,-122.3485616,   126.0, 2023,  6,  3, 23, 15,  9,        0,        0,   0,   0,  23.1,  23.1,  23.1,  0,  0,  0,  0,  0,  0,  0,  0,  0,  0,  0,  0,  0,  0,  0,  0,  0,  0,  0,  0,  0,  0,  0,  0,  0,  0,  0,  0,  0,  0,  0,  0
6, 10988, 1,KM4LKS,     6.63, -47,   9,   -2.01, 100599.00,   60.61,   -0.59,   -0.11, 26.4, 0.00, 0.00, 4.08,   9.87,   0.40,   0.04,  -0.06,   0.00,   0.06,   0.04,  -0.41,   0.00,   2.00, 4.08, 0.00, 0.00, 0.00, 0.00, 1, 0,  0,  47.5234650,-122.3485616,   126.0, 2023,  6,  3, 23, 15,  9,        0,        0,   0,   0,  23.1,  23.1,  23.1,  0,  0,  0,  0,  0,  0,  0,  0,  0,  0,  0,  0,  0,  0,  0,  0,  0,  0,  0,  0,  0,  0,  0,  0,  0,  0,  0,  0,  0,  0,  0,  0
6, 10988, 1,KM4LKS,     6.63, -48,   5,   -2.01, 100599.00,   60.61,   -0.59,   -0.11, 26.4, 0.00, 0.00, 4.08,   9.87,   0.40,   0.04,  -0.06,   0.00,   0.06,   0.04,  -0.41,   0.00,   2.00, 4.08, 0.00, 0.00, 0.00, 0.00, 1, 0,  0,  47.5234650,-122.3485616,   126.0, 2023,  6,  3, 23, 15,  9,        0,        0,   0,   0,  23.1,  23.1,  23.1,  0,  0,  0,  0,  0,  0,  0,  0,  0,  0,  0,  0,  0,  0,  0,  0,  0,  0,  0,  0,  0,  0,  0,  0,  0,  0,  0,  0,  0,  0,  0,  0
6, 10988, 1,KM4LKS,     6.63, -48,   6,   -2.01, 100599.00,   60.61,   -0.59,   -0.11, 26.4, 0.00, 0.00, 4.08,   9.87,   0.40,   0.04,  -0.06,   0.00,   0.06,   0.04,  -0.41,   0.00,   2.00, 4.08, 0.00, 0.00, 0.00, 0.00, 1, 0,  0,  47.5234650,-122.3485616,   126.0, 2023,  6,  3, 23, 15,  9,        0,        0,   0,   0,  23.1,  23.1,  23.1,  0,  0,  0,  0,  0,  0,  0,  0,  0,  0,  0,  0,  0,  0,  0,  0,  0,  0,  0,  0,  0,  0,  0,  0,  0,  0,  0,  0,  0,  0,  0,  0
6, 10988, 1,KM4LKS,     7.06, -48,   7,   -2.51, 100601.00,   60.44,   -0.75,   -0.14, 26.4, 0.00, 0.00, 4.08,   9.84,   0.39,   0.04,   0.00,   0.00,   0.06,   0.04,  -0.41,  -0.00,   2.00, 4.08, 0.00, 0.00, 0.00, 0.00, 1, 0,  0,  47.5234650,-122.3485616,   126.0, 2023,  6,  3, 23, 15,  9,        0,        0,   0,   0,  23.1,  23.1,  23.1,  0,  0,  0,  0,  0,  0,  0,  0,  0,  0,  0,  0,  0,  0,  0,  0,  0,  0,  0,  0,  0,  0,  0,  0,  0,  0,  0,  0,  0,  0,  0,  0
6, 10988, 1,KM4LKS,     7.09, -48,   8,   -2.51, 100601.00,   60.44,   -0.75,   -0.14, 26.4, 0.00, 0.00, 4.07,   9.84,   0.39,   0.04,   0.00,   0.00,   0.06,   0.04,  -0.41,  -0.00,   2.00, 4.09, 0.00, 0.00, 0.00, 0.00, 1, 0,  0,  47.5234650,-122.3485616,   126.0, 2023,  6,  3, 23, 15,  9,        0,        0,   0,   0,  23.1,  23.1,  23.1,  0,  0,  0,  0,  0,  0,  0,  0,  0,  0,  0,  0,  0,  0,  0,  0,  0,  0,  0,  0,  0,  0,  0,  0,  0,  0,  0,  0,  0,  0,  0,  0
6, 10988, 1,KM4LKS,     7.63, -47,   5,   -2.51, 100601.00,   60.44,   -0.75,   -0.14, 26.4, 0.00, 0.00, 4.07,   9.84,   0.39,   0.04,   0.00,   0.00,   0.06,   0.04,  -0.41,  -0.00,   2.00, 4.09, 0.00, 0.00, 0.00, 0.00, 1, 0,  0,  47.5234650,-122.3485616,   126.0, 2023,  6,  3, 23, 15,  9,        0,        0,   0,   0,  23.1,  23.1,  23.1,  0,  0,  0,  0,  0,  0,  0,  0,  0,  0,  0,  0,  0,  0,  0,  0,  0,  0,  0,  0,  0,  0,  0,  0,  0,  0,  0,  0,  0,  0,  0,  0
6, 10988, 1,KM4LKS,     7.63, -47,   7,   -2.51, 100601.00,   60.44,   -0.75,   -0.14, 26.4, 0.00, 0.00, 4.07,   9.84,   0.39,   0.04,   0.00,   0.00,   0.06,   0.04,  -0.41,  -0.00,   2.00, 4.09, 0.00, 0.00, 0.00, 0.00, 1, 0,  0,  47.5234650,-122.3485616,   126.0, 2023,  6,  3, 23, 15,  9,        0,        0,   0,   0,  23.1,  23.1,  23.1,  0,  0,  0,  0,  0,  0,  0,  0,  0,  0,  0,  0,  0,  0,  0,  0,  0,  0,  0,  0,  0,  0,  0,  0,  0,  0,  0,  0,  0,  0,  0,  0
6, 10988, 1,KM4LKS,     8.07, -48,   6,   -1.01, 100601.00,   60.44,   -0.75,   -0.21, 26.4, 0.00, 0.00, 4.07,   9.87,   0.39,   0.06,  -0.12,   0.06,   0.00,   0.04,  -0.41,   0.00,   2.00, 4.09, 0.00, 0.00, 0.00, 0.00, 1, 0,  0,  47.5234650,-122.3485616,   126.0, 2023,  6,  3, 23, 15,  9,        0,        0,   0,   0,  23.1,  23.1,  23.1,  0,  0,  0,  0,  0,  0,  0,  0,  0,  0,  0,  0,  0,  0,  0,  0,  0,  0,  0,  0,  0,  0,  0,  0,  0,  0,  0,  0,  0,  0,  0,  0
6, 10988, 1,KM4LKS,     8.10, -47,   7,   -1.01, 100601.00,   60.44,   -0.75,   -0.21, 26.4, 0.00, 0.00, 4.08,   9.87,   0.39,   0.06,  -0.12,   0.06,   0.00,   0.04,  -0.41,   0.00,   2.00, 4.08, 0.00, 0.00, 0.00, 0.00, 1, 0,  0,  47.5234650,-122.3485616,   126.0, 2023,  6,  3, 23, 15,  9,        0,        0,   0,   0,  23.1,  23.1,  23.1,  0,  0,  0,  0,  0,  0,  0,  0,  0,  0,  0,  0,  0,  0,  0,  0,  0,  0,  0,  0,  0,  0,  0,  0,  0,  0,  0,  0,  0,  0,  0,  0
6, 10988, 1,KM4LKS,     8.63, -46,   7,   -1.01, 100601.00,   60.44,   -0.75,   -0.21, 26.4, 0.00, 0.00, 4.08,   9.87,   0.39,   0.06,  -0.12,   0.06,   0.00,   0.04,  -0.41,   0.00,   2.00, 4.08, 0.00, 0.00, 0.00, 0.00, 1, 0,  0,  47.5234650,-122.3485616,   126.0, 2023,  6,  3, 23, 15,  9,        0,        0,   0,   0,  23.1,  23.1,  23.1,  0,  0,  0,  0,  0,  0,  0,  0,  0,  0,  0,  0,  0,  0,  0,  0,  0,  0,  0,  0,  0,  0,  0,  0,  0,  0,  0,  0,  0,  0,  0,  0
6, 10988, 1,KM4LKS,     8.63, -46,   6,   -1.01, 100601.00,   60.44,   -0.75,   -0.21, 26.4, 0.00, 0.00, 4.08,   9.87,   0.39,   0.06,  -0.12,   0.06,   0.00,   0.04,  -0.41,   0.00,   2.00, 4.08, 0.00, 0.00, 0.00, 0.00, 1, 0,  0,  47.5234650,-122.3485616,   126.0, 2023,  6,  3, 23, 15,  9,        0,        0,   0,   0,  23.1,  23.1,  23.1,  0,  0,  0,  0,  0,  0,  0,  0,  0,  0,  0,  0,  0,  0,  0,  0,  0,  0,  0,  0,  0,  0,  0,  0,  0,  0,  0,  0,  0,  0,  0,  0
6, 10988, 1,KM4LKS,     9.08, -45,   6,    0.50, 100606.00,   60.02,   -1.17,    0.07, 26.4, 0.00, 0.00, 4.08,   9.86,   0.42,   0.05,   0.06,  -0.18,   0.00,   0.04,  -0.41,   0.00,   2.00, 4.08, 0.00, 0.00, 0.00, 0.00, 1, 0,  0,  47.5234650,-122.3485616,   126.0, 2023,  6,  3, 23, 15,  9,        0,        0,   0,   0,  23.1,  23.1,  23.1,  0,  0,  0,  0,  0,  0,  0,  0,  0,  0,  0,  0,  0,  0,  0,  0,  0,  0,  0,  0,  0,  0,  0,  0,  0,  0,  0,  0,  0,  0,  0,  0
6, 10988, 1,KM4LKS,     9.11, -46,   7,    0.50, 100606.00,   60.02,   -1.17,    0.07, 26.4, 0.00, 0.00, 4.07,   9.86,   0.42,   0.05,   0.06,  -0.18,   0.00,   0.04,  -0.41,   0.00,   2.00, 4.08, 0.00, 0.00, 0.00, 0.00, 1, 0,  0,  47.5234650,-122.3485616,   126.0, 2023,  6,  3, 23, 15,  9,        0,        0,   0,   0,  23.1,  23.1,  23.1,  0,  0,  0,  0,  0,  0,  0,  0,  0,  0,  0,  0,  0,  0,  0,  0,  0,  0,  0,  0,  0,  0,  0,  0,  0,  0,  0,  0,  0,  0,  0,  0
6, 10988, 1,KM4LKS,     9.63, -44,   7,    0.50, 100606.00,   60.02,   -1.17,    0.07, 26.4, 0.00, 0.00, 4.07,   9.86,   0.42,   0.05,   0.06,  -0.18,   0.00,   0.04,  -0.41,   0.00,   2.00, 4.08, 0.00, 0.00, 0.00, 0.00, 1, 0,  0,  47.5234650,-122.3485616,   126.0, 2023,  6,  3, 23, 15,  9,        0,        0,   0,   0,  23.1,  23.1,  23.1,  0,  0,  0,  0,  0,  0,  0,  0,  0,  0,  0,  0,  0,  0,  0,  0,  0,  0,  0,  0,  0,  0,  0,  0,  0,  0,  0,  0,  0,  0,  0,  0
6, 10988, 1,KM4LKS,     9.63, -44,   7,    0.50, 100606.00,   60.02,   -1.17,    0.07, 26.4, 0.00, 0.00, 4.07,   9.86,   0.42,   0.05,   0.06,  -0.18,   0.00,   0.04,  -0.41,   0.00,   2.00, 4.08, 0.00, 0.00, 0.00, 0.00, 1, 0,  0,  47.5234650,-122.3485616,   126.0, 2023,  6,  3, 23, 15,  9,        0,        0,   0,   0,  23.1,  23.1,  23.1,  0,  0,  0,  0,  0,  0,  0,  0,  0,  0,  0,  0,  0,  0,  0,  0,  0,  0,  0,  0,  0,  0,  0,  0,  0,  0,  0,  0,  0,  0,  0,  0
6, 10988, 1,KM4LKS,    10.63, -45,   7,    0.50, 100606.00,   60.02,   -1.17,    0.07, 26.4, 0.00, 0.00, 4.07,   9.86,   0.42,   0.05,   0.06,  -0.18,   0.00,   0.04,  -0.41,   0.00,   2.00, 4.08, 0.00, 0.00, 0.00, 0.00, 1, 0,  0,  47.5234650,-122.3485616,   126.0, 2023,  6,  3, 23, 15,  9,        0,        0,   0,   0,  23.1,  23.1,  23.1,  0,  0,  0,  0,  0,  0,  0,  0,  0,  0,  0,  0,  0,  0,  0,  0,  0,  0,  0,  0,  0,  0,  0,  0,  0,  0,  0,  0,  0,  0,  0,  0
6, 10988, 1,KM4LKS,    10.63, -45,   8,    0.50, 100606.00,   60.02,   -1.17,    0.07, 26.4, 0.00, 0.00, 4.07,   9.86,   0.42,   0.05,   0.06,  -0.18,   0.00,   0.04,  -0.41,   0.00,   2.00, 4.08, 0.00, 0.00, 0.00, 0.00, 1, 0,  0,  47.5234650,-122.3485616,   126.0, 2023,  6,  3, 23, 15,  9,        0,        0,   0,   0,  23.1,  23.1,  23.1,  0,  0,  0,  0,  0,  0,  0,  0,  0,  0,  0,  0,  0,  0,  0,  0,  0,  0,  0,  0,  0,  0,  0,  0,  0,  0,  0,  0,  0,  0,  0,  0
6, 10988, 1,KM4LKS,    10.74, -44,   7,   -0.00, 100603.00,   60.27,   -0.92,    0.07, 26.5, 0.00, 0.00, 4.07,   9.84,   0.40,   0.04,  -0.12,   0.00,  -0.18,   0.04,  -0.41,   0.01,   2.00, 4.08, 0.00, 0.00, 0.00, 0.00, 1, 0,  0,  47.5234650,-122.3485616,   126.0, 2023,  6,  3, 23, 15,  9,        0,        0,   0,   0,  23.1,  23.1,  23.1,  0,  0,  0,  0,  0,  0,  0,  0,  0,  0,  0,  0,  0,  0,  0,  0,  0,  0,  0,  0,  0,  0,  0,  0,  0,  0,  0,  0,  0,  0,  0,  0
6, 10988, 1,KM4LKS,    10.76, -44,   7,   -0.00, 100603.00,   60.27,   -0.92,    0.07, 26.5, 0.00, 0.00, 4.08,   9.84,   0.40,   0.04,  -0.12,   0.00,  -0.18,   0.04,  -0.41,   0.01,   2.00, 4.09, 0.00, 0.00, 0.00, 0.00, 1, 0,  0,  47.5234650,-122.3485616,   126.0, 2023,  6,  3, 23, 15,  9,        0,        0,   0,   0,  23.1,  23.1,  23.1,  0,  0,  0,  0,  0,  0,  0,  0,  0,  0,  0,  0,  0,  0,  0,  0,  0,  0,  0,  0,  0,  0,  0,  0,  0,  0,  0,  0,  0,  0,  0,  0
6, 10988, 1,KM4LKS,    11.63, -45,   8,   -0.00, 100603.00,   60.27,   -0.92,    0.07, 26.5, 0.00, 0.00, 4.08,   9.84,   0.40,   0.04,  -0.12,   0.00,  -0.18,   0.04,  -0.41,   0.01,   2.00, 4.09, 0.00, 0.00, 0.00, 0.00, 1, 0,  0,  47.5234650,-122.3485616,   126.0, 2023,  6,  3, 23, 15,  9,        0,        0,   0,   0,  23.1,  23.1,  23.1,  0,  0,  0,  0,  0,  0,  0,  0,  0,  0,  0,  0,  0,  0,  0,  0,  0,  0,  0,  0,  0,  0,  0,  0,  0,  0,  0,  0,  0,  0,  0,  0
6, 10988, 1,KM4LKS,    11.63, -45,   6,   -0.00, 100603.00,   60.27,   -0.92,    0.07, 26.5, 0.00, 0.00, 4.08,   9.84,   0.40,   0.04,  -0.12,   0.00,  -0.18,   0.04,  -0.41,   0.01,   2.00, 4.09, 0.00, 0.00, 0.00, 0.00, 1, 0,  0,  47.5234650,-122.3485616,   126.0, 2023,  6,  3, 23, 15,  9,        0,        0,   0,   0,  23.1,  23.1,  23.1,  0,  0,  0,  0,  0,  0,  0,  0,  0,  0,  0,  0,  0,  0,  0,  0,  0,  0,  0,  0,  0,  0,  0,  0,  0,  0,  0,  0,  0,  0,  0,  0
6, 10988, 1,KM4LKS,    11.63, -45,   6,   -0.00, 100603.00,   60.27,   -0.92,    0.07, 26.5, 0.00, 0.00, 4.08,   9.84,   0.40,   0.04,  -0.12,   0.00,  -0.18,   0.04,  -0.41,   0.01,   2.00, 4.09, 0.00, 0.00, 0.00, 0.00, 1, 0,  0,  47.5234650,-122.3485616,   126.0, 2023,  6,  3, 23, 15,  9,        0,        0,   0,   0,  23.1,  23.1,  23.1,  0,  0,  0,  0,  0,  0,  0,  0,  0,  0,  0,  0,  0,  0,  0,  0,  0,  0,  0,  0,  0,  0,  0,  0,  0,  0,  0,  0,  0,  0,  0,  0
6, 10988, 1,KM4LKS,    11.74, -45,   5,   -0.00, 100604.00,   60.19,   -1.00,    0.18, 26.5, 0.00, 0.00, 4.08,   9.89,   0.40,   0.04,  -0.12,  -0.12,  -0.18,   0.04,  -0.41,   0.00,   2.00, 4.09, 0.00, 0.00, 0.00, 0.00, 1, 0,  0,  47.5234650,-122.3485616,   126.0, 2023,  6,  3, 23, 15,  9,        0,        0,   0,   0,  23.1,  23.1,  23.1,  0,  0,  0,  0,  0,  0,  0,  0,  0,  0,  0,  0,  0,  0,  0,  0,  0,  0,  0,  0,  0,  0,  0,  0,  0,  0,  0,  0,  0,  0,  0,  0
6, 10988, 1,KM4LKS,    11.77, -45,   8,   -0.00, 100604.00,   60.19,   -1.00,    0.18, 26.5, 0.00, 0.00, 4.07,   9.89,   0.40,   0.04,  -0.12,  -0.12,  -0.18,   0.04,  -0.41,   0.00,   2.00, 4.09, 0.00, 0.00, 0.00, 0.00, 1, 0,  0,  47.5234650,-122.3485616,   126.0, 2023,  6,  3, 23, 15,  9,        0,        0,   0,   0,  23.1,  23.1,  23.1,  0,  0,  0,  0,  0,  0,  0,  0,  0,  0,  0,  0,  0,  0,  0,  0,  0,  0,  0,  0,  0,  0,  0,  0,  0,  0,  0,  0,  0,  0,  0,  0
6, 10988, 1,KM4LKS,    12.63, -45,   5,   -0.00, 100604.00,   60.19,   -1.00,    0.18, 26.5, 0.00, 0.00, 4.07,   9.89,   0.40,   0.04,  -0.12,  -0.12,  -0.18,   0.04,  -0.41,   0.00,   2.00, 4.09, 0.00, 0.00, 0.00, 0.00, 1, 0,  0,  47.5234650,-122.3485616,   126.0, 2023,  6,  3, 23, 15,  9,        0,        0,   0,   0,  23.1,  23.1,  23.1,  0,  0,  0,  0,  0,  0,  0,  0,  0,  0,  0,  0,  0,  0,  0,  0,  0,  0,  0,  0,  0,  0,  0,  0,  0,  0,  0,  0,  0,  0,  0,  0
6, 10988, 1,KM4LKS,    12.63, -45,   8,   -0.00, 100604.00,   60.19,   -1.00,    0.18, 26.5, 0.00, 0.00, 4.07,   9.89,   0.40,   0.04,  -0.12,  -0.12,  -0.18,   0.04,  -0.41,   0.00,   2.00, 4.09, 0.00, 0.00, 0.00, 0.00, 1, 0,  0,  47.5234650,-122.3485616,   126.0, 2023,  6,  3, 23, 15,  9,        0,        0,   0,   0,  23.1,  23.1,  23.1,  0,  0,  0,  0,  0,  0,  0,  0,  0,  0,  0,  0,  0,  0,  0,  0,  0,  0,  0,  0,  0,  0,  0,  0,  0,  0,  0,  0,  0,  0,  0,  0
6, 10988, 1,KM4LKS,    12.75, -45,   7,    1.51, 100599.00,   60.61,   -0.59,    0.03, 26.5, 0.00, 0.00, 4.07,   9.84,   0.40,   0.08,   0.06,   0.06,   0.12,   0.04,  -0.41,   0.00,   2.00, 4.09, 0.00, 0.00, 0.00, 0.00, 1, 0,  0,  47.5234650,-122.3485616,   126.0, 2023,  6,  3, 23, 15,  9,        0,        0,   0,   0,  23.1,  23.1,  23.1,  0,  0,  0,  0,  0,  0,  0,  0,  0,  0,  0,  0,  0,  0,  0,  0,  0,  0,  0,  0,  0,  0,  0,  0,  0,  0,  0,  0,  0,  0,  0,  0
6, 10988, 1,KM4LKS,    12.78, -45,   7,    1.51, 100599.00,   60.61,   -0.59,    0.03, 26.5, 0.00, 0.00, 4.08,   9.84,   0.40,   0.08,   0.06,   0.06,   0.12,   0.04,  -0.41,   0.00,   2.00, 4.08, 0.00, 0.00, 0.00, 0.00, 1, 0,  0,  47.5234650,-122.3485616,   126.0, 2023,  6,  3, 23, 15,  9,        0,        0,   0,   0,  23.1,  23.1,  23.1,  0,  0,  0,  0,  0,  0,  0,  0,  0,  0,  0,  0,  0,  0,  0,  0,  0,  0,  0,  0,  0,  0,  0,  0,  0,  0,  0,  0,  0,  0,  0,  0
6, 10988, 1,KM4LKS,    13.63, -45,   6,    1.51, 100599.00,   60.61,   -0.59,    0.03, 26.5, 0.00, 0.00, 4.08,   9.84,   0.40,   0.08,   0.06,   0.06,   0.12,   0.04,  -0.41,   0.00,   2.00, 4.08, 0.00, 0.00, 0.00, 0.00, 1, 0,  0,  47.5234650,-122.3485616,   126.0, 2023,  6,  3, 23, 15,  9,        0,        0,   0,   0,  23.1,  23.1,  23.1,  0,  0,  0,  0,  0,  0,  0,  0,  0,  0,  0,  0,  0,  0,  0,  0,  0,  0,  0,  0,  0,  0,  0,  0,  0,  0,  0,  0,  0,  0,  0,  0
6, 10988, 1,KM4LKS,    13.63, -44,   6,    1.51, 100599.00,   60.61,   -0.59,    0.03, 26.5, 0.00, 0.00, 4.08,   9.84,   0.40,   0.08,   0.06,   0.06,   0.12,   0.04,  -0.41,   0.00,   2.00, 4.08, 0.00, 0.00, 0.00, 0.00, 1, 0,  0,  47.5234650,-122.3485616,   126.0, 2023,  6,  3, 23, 15,  9,        0,        0,   0,   0,  23.1,  23.1,  23.1,  0,  0,  0,  0,  0,  0,  0,  0,  0,  0,  0,  0,  0,  0,  0,  0,  0,  0,  0,  0,  0,  0,  0,  0,  0,  0,  0,  0,  0,  0,  0,  0
6, 10988, 1,KM4LKS,    13.76, -45,   7,   -1.01, 100600.00,   60.53,   -0.67,    0.07, 26.5, 0.00, 0.00, 4.08,   9.85,   0.37,   0.04,  -0.06,  -0.06,   0.00,   0.04,  -0.41,   0.00,   2.00, 4.08, 0.00, 0.00, 0.00, 0.00, 1, 0,  0,  47.5234650,-122.3485616,   126.0, 2023,  6,  3, 23, 15,  9,        0,        0,   0,   0,  23.1,  23.1,  23.1,  0,  0,  0,  0,  0,  0,  0,  0,  0,  0,  0,  0,  0,  0,  0,  0,  0,  0,  0,  0,  0,  0,  0,  0,  0,  0,  0,  0,  0,  0,  0,  0
6, 10988, 1,KM4LKS,    13.79, -45,   8,   -1.01, 100600.00,   60.53,   -0.67,    0.07, 26.5, 0.00, 0.00, 4.08,   9.85,   0.37,   0.04,  -0.06,  -0.06,   0.00,   0.04,  -0.41,   0.00,   2.00, 4.09, 0.00, 0.00, 0.00, 0.00, 1, 0,  0,  47.5234650,-122.3485616,   126.0, 2023,  6,  3, 23, 15,  9,        0,        0,   0,   0,  23.1,  23.1,  23.1,  0,  0,  0,  0,  0,  0,  0,  0,  0,  0,  0,  0,  0,  0,  0,  0,  0,  0,  0,  0,  0,  0,  0,  0,  0,  0,  0,  0,  0,  0,  0,  0
6, 10988, 1,KM4LKS,    14.63, -43,   5,   -1.01, 100600.00,   60.53,   -0.67,    0.07, 26.5, 0.00, 0.00, 4.08,   9.85,   0.37,   0.04,  -0.06,  -0.06,   0.00,   0.04,  -0.41,   0.00,   2.00, 4.09, 0.00, 0.00, 0.00, 0.00, 1, 0,  0,  47.5234650,-122.3485616,   126.0, 2023,  6,  3, 23, 15,  9,        0,        0,   0,   0,  23.1,  23.1,  23.1,  0,  0,  0,  0,  0,  0,  0,  0,  0,  0,  0,  0,  0,  0,  0,  0,  0,  0,  0,  0,  0,  0,  0,  0,  0,  0,  0,  0,  0,  0,  0,  0
6, 10988, 1,KM4LKS,    14.63, -43,   8,   -1.01, 100600.00,   60.53,   -0.67,    0.07, 26.5, 0.00, 0.00, 4.08,   9.85,   0.37,   0.04,  -0.06,  -0.06,   0.00,   0.04,  -0.41,   0.00,   2.00, 4.09, 0.00, 0.00, 0.00, 0.00, 1, 0,  0,  47.5234650,-122.3485616,   126.0, 2023,  6,  3, 23, 15,  9,        0,        0,   0,   0,  23.1,  23.1,  23.1,  0,  0,  0,  0,  0,  0,  0,  0,  0,  0,  0,  0,  0,  0,  0,  0,  0,  0,  0,  0,  0,  0,  0,  0,  0,  0,  0,  0,  0,  0,  0,  0
6, 10988, 1,KM4LKS,    14.77, -45,   4,   -0.50, 100601.00,   60.44,   -0.75,    0.27, 26.5, 0.00, 0.00, 4.08,   9.83,   0.39,   0.07,   0.00,   0.06,   0.06,   0.04,  -0.41,  -0.00,   2.00, 4.09, 0.00, 0.00, 0.00, 0.00, 1, 0,  0,  47.5234650,-122.3485616,   126.0, 2023,  6,  3, 23, 15,  9,        0,        0,   0,   0,  23.1,  23.1,  23.1,  0,  0,  0,  0,  0,  0,  0,  0,  0,  0,  0,  0,  0,  0,  0,  0,  0,  0,  0,  0,  0,  0,  0,  0,  0,  0,  0,  0,  0,  0,  0,  0
6, 10988, 1,KM4LKS,    14.80, -44,   7,   -0.50, 100601.00,   60.44,   -0.75,    0.27, 26.5, 0.00, 0.00, 4.08,   9.83,   0.39,   0.07,   0.00,   0.06,   0.06,   0.04,  -0.41,  -0.00,   2.00, 4.08, 0.00, 0.00, 0.00, 0.00, 1, 0,  0,  47.5234650,-122.3485616,   126.0, 2023,  6,  3, 23, 15,  9,        0,        0,   0,   0,  23.1,  23.1,  23.1,  0,  0,  0,  0,  0,  0,  0,  0,  0,  0,  0,  0,  0,  0,  0,  0,  0,  0,  0,  0,  0,  0,  0,  0,  0,  0,  0,  0,  0,  0,  0,  0
6, 10988, 1,KM4LKS,    15.78, -43,   5,   -0.50, 100594.00,   61.03,   -0.17,    0.13, 26.6, 0.00, 0.00, 4.08,   9.86,   0.41,   0.04,   0.12,  -0.06,   0.06,   0.04,  -0.41,   0.00,   1.00, 4.08, 0.00, 0.00, 0.00, 0.00, 1, 0,  0,  47.5234650,-122.3485616,   126.0, 2023,  6,  3, 23, 15,  9,        0,        0,   0,   0,  23.1,  23.1,  23.1,  0,  0,  0,  0,  0,  0,  0,  0,  0,  0,  0,  0,  0,  0,  0,  0,  0,  0,  0,  0,  0,  0,  0,  0,  0,  0,  0,  0,  0,  0,  0,  0
6, 10988, 1,KM4LKS,    15.81, -43,   8,   -0.50, 100594.00,   61.03,   -0.17,    0.13, 26.6, 0.00, 0.00, 4.08,   9.86,   0.41,   0.04,   0.12,  -0.06,   0.06,   0.04,  -0.41,   0.00,   1.00, 4.09, 0.00, 0.00, 0.00, 0.00, 1, 0,  0,  47.5234650,-122.3485616,   126.0, 2023,  6,  3, 23, 15,  9,        0,        0,   0,   0,  23.1,  23.1,  23.1,  0,  0,  0,  0,  0,  0,  0,  0,  0,  0,  0,  0,  0,  0,  0,  0,  0,  0,  0,  0,  0,  0,  0,  0,  0,  0,  0,  0,  0,  0,  0,  0
6, 10988, 1,KM4LKS,    16.63, -44,   7,   -0.50, 100594.00,   61.03,   -0.17,    0.13, 26.6, 0.00, 0.00, 4.08,   9.86,   0.41,   0.04,   0.12,  -0.06,   0.06,   0.04,  -0.41,   0.00,   1.00, 4.09, 0.00, 0.00, 0.00, 0.00, 1, 0,  0,  47.5234650,-122.3485616,   126.0, 2023,  6,  3, 23, 15,  9,        0,        0,   0,   0,  23.1,  23.1,  23.1,  0,  0,  0,  0,  0,  0,  0,  0,  0,  0,  0,  0,  0,  0,  0,  0,  0,  0,  0,  0,  0,  0,  0,  0,  0,  0,  0,  0,  0,  0,  0,  0
6, 10988, 1,KM4LKS,    16.63, -43,   7,   -0.50, 100594.00,   61.03,   -0.17,    0.13, 26.6, 0.00, 0.00, 4.08,   9.86,   0.41,   0.04,   0.12,  -0.06,   0.06,   0.04,  -0.41,   0.00,   1.00, 4.09, 0.00, 0.00, 0.00, 0.00, 1, 0,  0,  47.5234650,-122.3485616,   126.0, 2023,  6,  3, 23, 15,  9,        0,        0,   0,   0,  23.1,  23.1,  23.1,  0,  0,  0,  0,  0,  0,  0,  0,  0,  0,  0,  0,  0,  0,  0,  0,  0,  0,  0,  0,  0,  0,  0,  0,  0,  0,  0,  0,  0,  0,  0,  0
6, 10988, 1,KM4LKS,    16.79, -44,   9,   -0.50, 100595.00,   60.94,   -0.25,    0.09, 26.6, 0.00, 0.00, 4.08,   9.86,   0.39,   0.09,   0.12,  -0.12,   0.00,   0.04,  -0.41,   0.00,   1.00, 4.09, 0.00, 0.00, 0.00, 0.00, 1, 0,  0,  47.5234650,-122.3485616,   126.0, 2023,  6,  3, 23, 15,  9,        0,        0,   0,   0,  23.1,  23.1,  23.1,  0,  0,  0,  0,  0,  0,  0,  0,  0,  0,  0,  0,  0,  0,  0,  0,  0,  0,  0,  0,  0,  0,  0,  0,  0,  0,  0,  0,  0,  0,  0,  0
6, 10988, 1,KM4LKS,    16.82, -44,   8,   -0.50, 100595.00,   60.94,   -0.25,    0.09, 26.6, 0.00, 0.00, 4.07,   9.86,   0.39,   0.09,   0.12,  -0.12,   0.00,   0.04,  -0.41,   0.00,   1.00, 4.09, 0.00, 0.00, 0.00, 0.00, 1, 0,  0,  47.5234650,-122.3485616,   126.0, 2023,  6,  3, 23, 15,  9,        0,        0,   0,   0,  23.1,  23.1,  23.1,  0,  0,  0,  0,  0,  0,  0,  0,  0,  0,  0,  0,  0,  0,  0,  0,  0,  0,  0,  0,  0,  0,  0,  0,  0,  0,  0,  0,  0,  0,  0,  0
6, 10988, 1,KM4LKS,    17.63, -46,   6,   -0.50, 100595.00,   60.94,   -0.25,    0.09, 26.6, 0.00, 0.00, 4.07,   9.86,   0.39,   0.09,   0.12,  -0.12,   0.00,   0.04,  -0.41,   0.00,   1.00, 4.09, 0.00, 0.00, 0.00, 0.00, 1, 0,  0,  47.5234650,-122.3485616,   126.0, 2023,  6,  3, 23, 15,  9,        0,        0,   0,   0,  23.1,  23.1,  23.1,  0,  0,  0,  0,  0,  0,  0,  0,  0,  0,  0,  0,  0,  0,  0,  0,  0,  0,  0,  0,  0,  0,  0,  0,  0,  0,  0,  0,  0,  0,  0,  0
6, 10988, 1,KM4LKS,    17.63, -46,   6,   -0.50, 100595.00,   60.94,   -0.25,    0.09, 26.6, 0.00, 0.00, 4.07,   9.86,   0.39,   0.09,   0.12,  -0.12,   0.00,   0.04,  -0.41,   0.00,   1.00, 4.09, 0.00, 0.00, 0.00, 0.00, 1, 0,  0,  47.5234650,-122.3485616,   126.0, 2023,  6,  3, 23, 15,  9,        0,        0,   0,   0,  23.1,  23.1,  23.1,  0,  0,  0,  0,  0,  0,  0,  0,  0,  0,  0,  0,  0,  0,  0,  0,  0,  0,  0,  0,  0,  0,  0,  0,  0,  0,  0,  0,  0,  0,  0,  0
6, 10988, 1,KM4LKS,    17.63, -46,   6,   -0.50, 100595.00,   60.94,   -0.25,    0.09, 26.6, 0.00, 0.00, 4.07,   9.86,   0.39,   0.09,   0.12,  -0.12,   0.00,   0.04,  -0.41,   0.00,   1.00, 4.09, 0.00, 0.00, 0.00, 0.00, 1, 0,  0,  47.5234650,-122.3485616,   126.0, 2023,  6,  3, 23, 15,  9,        0,        0,   0,   0,  23.1,  23.1,  23.1,  0,  0,  0,  0,  0,  0,  0,  0,  0,  0,  0,  0,  0,  0,  0,  0,  0,  0,  0,  0,  0,  0,  0,  0,  0,  0,  0,  0,  0,  0,  0,  0
6, 10988, 1,KM4LKS,    17.80, -46,   7,   -0.50, 100593.00,   61.11,   -0.08,   -0.17, 26.6, 0.00, 0.00, 4.07,   9.86,   0.41,   0.06,   0.06,  -0.18,  -0.24,   0.04,  -0.41,   0.00,   1.00, 4.09, 0.00, 0.00, 0.00, 0.00, 1, 0,  0,  47.5234650,-122.3485616,   126.0, 2023,  6,  3, 23, 15,  9,        0,        0,   0,   0,  23.1,  23.1,  23.1,  0,  0,  0,  0,  0,  0,  0,  0,  0,  0,  0,  0,  0,  0,  0,  0,  0,  0,  0,  0,  0,  0,  0,  0,  0,  0,  0,  0,  0,  0,  0,  0
6, 10988, 1,KM4LKS,    17.83, -46,   8,   -0.50, 100593.00,   61.11,   -0.08,   -0.17, 26.6, 0.00, 0.00, 4.08,   9.86,   0.41,   0.06,   0.06,  -0.18,  -0.24,   0.04,  -0.41,   0.00,   1.00, 4.09, 0.00, 0.00, 0.00, 0.00, 1, 0,  0,  47.5234650,-122.3485616,   126.0, 2023,  6,  3, 23, 15,  9,        0,        0,   0,   0,  23.1,  23.1,  23.1,  0,  0,  0,  0,  0,  0,  0,  0,  0,  0,  0,  0,  0,  0,  0,  0,  0,  0,  0,  0,  0,  0,  0,  0,  0,  0,  0,  0,  0,  0,  0,  0
6, 10988, 1,KM4LKS,    18.63, -45,   4,   -0.50, 100593.00,   61.11,   -0.08,   -0.17, 26.6, 0.00, 0.00, 4.08,   9.86,   0.41,   0.06,   0.06,  -0.18,  -0.24,   0.04,  -0.41,   0.00,   1.00, 4.09, 0.00, 0.00, 0.00, 0.00, 1, 0,  0,  47.5234650,-122.3485616,   126.0, 2023,  6,  3, 23, 15,  9,        0,        0,   0,   0,  23.1,  23.1,  23.1,  0,  0,  0,  0,  0,  0,  0,  0,  0,  0,  0,  0,  0,  0,  0,  0,  0,  0,  0,  0,  0,  0,  0,  0,  0,  0,  0,  0,  0,  0,  0,  0
6, 10988, 1,KM4LKS,    18.63, -45,   7,   -0.50, 100593.00,   61.11,   -0.08,   -0.17, 26.6, 0.00, 0.00, 4.08,   9.86,   0.41,   0.06,   0.06,  -0.18,  -0.24,   0.04,  -0.41,   0.00,   1.00, 4.09, 0.00, 0.00, 0.00, 0.00, 1, 0,  0,  47.5234650,-122.3485616,   126.0, 2023,  6,  3, 23, 15,  9,        0,        0,   0,   0,  23.1,  23.1,  23.1,  0,  0,  0,  0,  0,  0,  0,  0,  0,  0,  0,  0,  0,  0,  0,  0,  0,  0,  0,  0,  0,  0,  0,  0,  0,  0,  0,  0,  0,  0,  0,  0
6, 10988, 1,KM4LKS,    18.81, -45,   6,   -1.01, 100592.00,   61.20,    0.00,   -0.51, 26.6, 0.00, 0.00, 4.08,   9.85,   0.37,   0.04,  -0.18,  -0.06,  -0.06,   0.04,  -0.41,   0.00,   1.00, 4.09, 0.00, 0.00, 0.00, 0.00, 1, 0,  0,  47.5234650,-122.3485616,   126.0, 2023,  6,  3, 23, 15,  9,        0,        0,   0,   0,  23.1,  23.1,  23.1,  0,  0,  0,  0,  0,  0,  0,  0,  0,  0,  0,  0,  0,  0,  0,  0,  0,  0,  0,  0,  0,  0,  0,  0,  0,  0,  0,  0,  0,  0,  0,  0
6, 10988, 1,KM4LKS,    18.84, -45,   7,   -1.01, 100592.00,   61.20,    0.00,   -0.51, 26.6, 0.00, 0.00, 4.08,   9.85,   0.37,   0.04,  -0.18,  -0.06,  -0.06,   0.04,  -0.41,   0.00,   1.00, 4.08, 0.00, 0.00, 0.00, 0.00, 1, 0,  0,  47.5234650,-122.3485616,   126.0, 2023,  6,  3, 23, 15,  9,        0,        0,   0,   0,  23.1,  23.1,  23.1,  0,  0,  0,  0,  0,  0,  0,  0,  0,  0,  0,  0,  0,  0,  0,  0,  0,  0,  0,  0,  0,  0,  0,  0,  0,  0,  0,  0,  0,  0,  0,  0
6, 10988, 1,KM4LKS,    19.63, -43,   9,   -1.01, 100592.00,   61.20,    0.00,   -0.51, 26.6, 0.00, 0.00, 4.08,   9.85,   0.37,   0.04,  -0.18,  -0.06,  -0.06,   0.04,  -0.41,   0.00,   1.00, 4.08, 0.00, 0.00, 0.00, 0.00, 1, 0,  0,  47.5234650,-122.3485616,   126.0, 2023,  6,  3, 23, 15,  9,        0,        0,   0,   0,  23.1,  23.1,  23.1,  0,  0,  0,  0,  0,  0,  0,  0,  0,  0,  0,  0,  0,  0,  0,  0,  0,  0,  0,  0,  0,  0,  0,  0,  0,  0,  0,  0,  0,  0,  0,  0
6, 10988, 1,KM4LKS,    19.63, -43,   5,   -1.01, 100592.00,   61.20,    0.00,   -0.51, 26.6, 0.00, 0.00, 4.08,   9.85,   0.37,   0.04,  -0.18,  -0.06,  -0.06,   0.04,  -0.41,   0.00,   1.00, 4.08, 0.00, 0.00, 0.00, 0.00, 1, 0,  0,  47.5234650,-122.3485616,   126.0, 2023,  6,  3, 23, 15,  9,        0,        0,   0,   0,  23.1,  23.1,  23.1,  0,  0,  0,  0,  0,  0,  0,  0,  0,  0,  0,  0,  0,  0,  0,  0,  0,  0,  0,  0,  0,  0,  0,  0,  0,  0,  0,  0,  0,  0,  0,  0
6, 10988, 1,KM4LKS,    19.82, -43,  10,   -1.51, 100605.00,   60.11,   -1.09,   -0.03, 26.6, 0.00, 0.00, 4.08,   9.84,   0.40,   0.05,   0.12,   0.06,  -0.06,   0.04,  -0.41,   0.00,   2.00, 4.08, 0.00, 0.00, 0.00, 0.00, 1, 0,  0,  47.5234650,-122.3485616,   126.0, 2023,  6,  3, 23, 15,  9,        0,        0,   0,   0,  23.1,  23.1,  23.1,  0,  0,  0,  0,  0,  0,  0,  0,  0,  0,  0,  0,  0,  0,  0,  0,  0,  0,  0,  0,  0,  0,  0,  0,  0,  0,  0,  0,  0,  0,  0,  0
6, 10988, 1,KM4LKS,    19.85, -43,   7,   -1.51, 100605.00,   60.11,   -1.09,   -0.03, 26.6, 0.00, 0.00, 4.08,   9.84,   0.40,   0.05,   0.12,   0.06,  -0.06,   0.04,  -0.41,   0.00,   2.00, 4.09, 0.00, 0.00, 0.00, 0.00, 1, 0,  0,  47.5234650,-122.3485616,   126.0, 2023,  6,  3, 23, 15,  9,        0,        0,   0,   0,  23.1,  23.1,  23.1,  0,  0,  0,  0,  0,  0,  0,  0,  0,  0,  0,  0,  0,  0,  0,  0,  0,  0,  0,  0,  0,  0,  0,  0,  0,  0,  0,  0,  0,  0,  0,  0
6, 10988, 1,KM4LKS,    20.63, -47,   7,   -1.51, 100605.00,   60.11,   -1.09,   -0.03, 26.6, 0.00, 0.00, 4.08,   9.84,   0.40,   0.05,   0.12,   0.06,  -0.06,   0.04,  -0.41,   0.00,   2.00, 4.09, 0.00, 0.00, 0.00, 0.00, 1, 0,  0,  47.5234650,-122.3485616,   126.0, 2023,  6,  3, 23, 15,  9,        0,        0,   0,   0,  23.1,  23.1,  23.1,  0,  0,  0,  0,  0,  0,  0,  0,  0,  0,  0,  0,  0,  0,  0,  0,  0,  0,  0,  0,  0,  0,  0,  0,  0,  0,  0,  0,  0,  0,  0,  0
6, 10988, 1,KM4LKS,    20.63, -47,   5,   -1.51, 100605.00,   60.11,   -1.09,   -0.03, 26.6, 0.00, 0.00, 4.08,   9.84,   0.40,   0.05,   0.12,   0.06,  -0.06,   0.04,  -0.41,   0.00,   2.00, 4.09, 0.00, 0.00, 0.00, 0.00, 1, 0,  0,  47.5234650,-122.3485616,   126.0, 2023,  6,  3, 23, 15,  9,        0,        0,   0,   0,  23.1,  23.1,  23.1,  0,  0,  0,  0,  0,  0,  0,  0,  0,  0,  0,  0,  0,  0,  0,  0,  0,  0,  0,  0,  0,  0,  0,  0,  0,  0,  0,  0,  0,  0,  0,  0
6, 10988, 1,KM4LKS,    20.83, -46,   9,    0.50, 100603.00,   60.27,   -0.92,    0.27, 26.7, 0.00, 0.00, 4.08,   9.86,   0.40,   0.07,  -0.06,  -0.24,  -0.06,   0.04,  -0.41,  -0.00,   2.00, 4.09, 0.00, 0.00, 0.00, 0.00, 1, 0,  0,  47.5234650,-122.3485616,   126.0, 2023,  6,  3, 23, 15,  9,        0,        0,   0,   0,  23.1,  23.1,  23.1,  0,  0,  0,  0,  0,  0,  0,  0,  0,  0,  0,  0,  0,  0,  0,  0,  0,  0,  0,  0,  0,  0,  0,  0,  0,  0,  0,  0,  0,  0,  0,  0
6, 10988, 1,KM4LKS,    20.86, -47,   9,    0.50, 100603.00,   60.27,   -0.92,    0.27, 26.7, 0.00, 0.00, 4.08,   9.86,   0.40,   0.07,  -0.06,  -0.24,  -0.06,   0.04,  -0.41,  -0.00,   2.00, 4.09, 0.00, 0.00, 0.00, 0.00, 1, 0,  0,  47.5234650,-122.3485616,   126.0, 2023,  6,  3, 23, 15,  9,        0,        0,   0,   0,  23.1,  23.1,  23.1,  0,  0,  0,  0,  0,  0,  0,  0,  0,  0,  0,  0,  0,  0,  0,  0,  0,  0,  0,  0,  0,  0,  0,  0,  0,  0,  0,  0,  0,  0,  0,  0
6, 10988, 1,KM4LKS,    21.63, -46,   7,    0.50, 100603.00,   60.27,   -0.92,    0.27, 26.7, 0.00, 0.00, 4.08,   9.86,   0.40,   0.07,  -0.06,  -0.24,  -0.06,   0.04,  -0.41,  -0.00,   2.00, 4.09, 0.00, 0.00, 0.00, 0.00, 1, 0,  0,  47.5234650,-122.3485616,   126.0, 2023,  6,  3, 23, 15,  9,        0,        0,   0,   0,  23.1,  23.1,  23.1,  0,  0,  0,  0,  0,  0,  0,  0,  0,  0,  0,  0,  0,  0,  0,  0,  0,  0,  0,  0,  0,  0,  0,  0,  0,  0,  0,  0,  0,  0,  0,  0
6, 10988, 1,KM4LKS,    21.63, -46,   8,    0.50, 100603.00,   60.27,   -0.92,    0.27, 26.7, 0.00, 0.00, 4.08,   9.86,   0.40,   0.07,  -0.06,  -0.24,  -0.06,   0.04,  -0.41,  -0.00,   2.00, 4.09, 0.00, 0.00, 0.00, 0.00, 1, 0,  0,  47.5234650,-122.3485616,   126.0, 2023,  6,  3, 23, 15,  9,        0,        0,   0,   0,  23.1,  23.1,  23.1,  0,  0,  0,  0,  0,  0,  0,  0,  0,  0,  0,  0,  0,  0,  0,  0,  0,  0,  0,  0,  0,  0,  0,  0,  0,  0,  0,  0,  0,  0,  0,  0
6, 10988, 1,KM4LKS,    21.84, -45,   7,    0.50, 100596.00,   60.86,   -0.33,   -0.02, 26.7, 0.00, 0.00, 4.08,   9.86,   0.43,   0.08,  -0.18,   0.00,   0.06,   0.04,  -0.41,   0.00,   2.00, 4.09, 0.00, 0.00, 0.00, 0.00, 1, 0,  0,  47.5234650,-122.3485616,   126.0, 2023,  6,  3, 23, 15,  9,        0,        0,   0,   0,  23.1,  23.1,  23.1,  0,  0,  0,  0,  0,  0,  0,  0,  0,  0,  0,  0,  0,  0,  0,  0,  0,  0,  0,  0,  0,  0,  0,  0,  0,  0,  0,  0,  0,  0,  0,  0
6, 10988, 1,KM4LKS,    21.87, -45,   5,    0.50, 100596.00,   60.86,   -0.33,   -0.02, 26.7, 0.00, 0.00, 4.08,   9.86,   0.43,   0.08,  -0.18,   0.00,   0.06,   0.04,  -0.41,   0.00,   2.00, 4.08, 0.00, 0.00, 0.00, 0.00, 1, 0,  0,  47.5234650,-122.3485616,   126.0, 2023,  6,  3, 23, 15,  9,        0,        0,   0,   0,  23.1,  23.1,  23.1,  0,  0,  0,  0,  0,  0,  0,  0,  0,  0,  0,  0,  0,  0,  0,  0,  0,  0,  0,  0,  0,  0,  0,  0,  0,  0,  0,  0,  0,  0,  0,  0
6, 10988, 1,KM4LKS,    22.63, -44,   9,    0.50, 100596.00,   60.86,   -0.33,   -0.02, 26.7, 0.00, 0.00, 4.08,   9.86,   0.43,   0.08,  -0.18,   0.00,   0.06,   0.04,  -0.41,   0.00,   2.00, 4.08, 0.00, 0.00, 0.00, 0.00, 1, 0,  0,  47.5234650,-122.3485616,   126.0, 2023,  6,  3, 23, 15,  9,        0,        0,   0,   0,  23.1,  23.1,  23.1,  0,  0,  0,  0,  0,  0,  0,  0,  0,  0,  0,  0,  0,  0,  0,  0,  0,  0,  0,  0,  0,  0,  0,  0,  0,  0,  0,  0,  0,  0,  0,  0
6, 10988, 1,KM4LKS,    22.63, -43,   6,    0.50, 100596.00,   60.86,   -0.33,   -0.02, 26.7, 0.00, 0.00, 4.08,   9.86,   0.43,   0.08,  -0.18,   0.00,   0.06,   0.04,  -0.41,   0.00,   2.00, 4.08, 0.00, 0.00, 0.00, 0.00, 1, 0,  0,  47.5234650,-122.3485616,   126.0, 2023,  6,  3, 23, 15,  9,        0,        0,   0,   0,  23.1,  23.1,  23.1,  0,  0,  0,  0,  0,  0,  0,  0,  0,  0,  0,  0,  0,  0,  0,  0,  0,  0,  0,  0,  0,  0,  0,  0,  0,  0,  0,  0,  0,  0,  0,  0
6, 10988, 1,KM4LKS,    22.63, -44,   4,    0.50, 100596.00,   60.86,   -0.33,   -0.02, 26.7, 0.00, 0.00, 4.08,   9.86,   0.43,   0.08,  -0.18,   0.00,   0.06,   0.04,  -0.41,   0.00,   2.00, 4.08, 0.00, 0.00, 0.00, 0.00, 1, 0,  0,  47.5234650,-122.3485616,   126.0, 2023,  6,  3, 23, 15,  9,        0,        0,   0,   0,  23.1,  23.1,  23.1,  0,  0,  0,  0,  0,  0,  0,  0,  0,  0,  0,  0,  0,  0,  0,  0,  0,  0,  0,  0,  0,  0,  0,  0,  0,  0,  0,  0,  0,  0,  0,  0
6, 10988, 1,KM4LKS,    22.85, -44,   5,    0.50, 100600.00,   60.53,   -0.67,   -0.01, 26.7, 0.00, 0.00, 4.08,   9.86,   0.36,   0.08,   0.37,  -0.24,   0.12,   0.04,  -0.41,   0.00,   2.00, 4.08, 0.00, 0.00, 0.00, 0.00, 1, 0,  0,  47.5234650,-122.3485616,   126.0, 2023,  6,  3, 23, 15,  9,        0,        0,   0,   0,  23.1,  23.1,  23.1,  0,  0,  0,  0,  0,  0,  0,  0,  0,  0,  0,  0,  0,  0,  0,  0,  0,  0,  0,  0,  0,  0,  0,  0,  0,  0,  0,  0,  0,  0,  0,  0
6, 10988, 1,KM4LKS,    22.88, -44,   8,    0.50, 100600.00,   60.53,   -0.67,   -0.01, 26.7, 0.00, 0.00, 4.08,   9.86,   0.36,   0.08,   0.37,  -0.24,   0.12,   0.04,  -0.41,   0.00,   2.00, 4.08, 0.00, 0.00, 0.00, 0.00, 1, 0,  0,  47.5234650,-122.3485616,   126.0, 2023,  6,  3, 23, 15,  9,        0,        0,   0,   0,  23.1,  23.1,  23.1,  0,  0,  0,  0,  0,  0,  0,  0,  0,  0,  0,  0,  0,  0,  0,  0,  0,  0,  0,  0,  0,  0,  0,  0,  0,  0,  0,  0,  0,  0,  0,  0
6, 10988, 1,KM4LKS,    23.63, -44,   6,    0.50, 100600.00,   60.53,   -0.67,   -0.01, 26.7, 0.00, 0.00, 4.08,   9.86,   0.36,   0.08,   0.37,  -0.24,   0.12,   0.04,  -0.41,   0.00,   2.00, 4.08, 0.00, 0.00, 0.00, 0.00, 1, 0,  0,  47.5234650,-122.3485616,   126.0, 2023,  6,  3, 23, 15,  9,        0,        0,   0,   0,  23.1,  23.1,  23.1,  0,  0,  0,  0,  0,  0,  0,  0,  0,  0,  0,  0,  0,  0,  0,  0,  0,  0,  0,  0,  0,  0,  0,  0,  0,  0,  0,  0,  0,  0,  0,  0
6, 10988, 1,KM4LKS,    23.63, -44,   5,    0.50, 100600.00,   60.53,   -0.67,   -0.01, 26.7, 0.00, 0.00, 4.08,   9.86,   0.36,   0.08,   0.37,  -0.24,   0.12,   0.04,  -0.41,   0.00,   2.00, 4.08, 0.00, 0.00, 0.00, 0.00, 1, 0,  0,  47.5234650,-122.3485616,   126.0, 2023,  6,  3, 23, 15,  9,        0,        0,   0,   0,  23.1,  23.1,  23.1,  0,  0,  0,  0,  0,  0,  0,  0,  0,  0,  0,  0,  0,  0,  0,  0,  0,  0,  0,  0,  0,  0,  0,  0,  0,  0,  0,  0,  0,  0,  0,  0
6, 10988, 1,KM4LKS,    23.86, -44,   6,   -1.01, 100599.00,   60.61,   -0.59,   -0.09, 26.7, 0.00, 0.00, 4.08,   9.87,   0.41,   0.10,  -0.12,  -0.12,  -0.18,   0.04,  -0.41,   0.00,   2.00, 4.08, 0.00, 0.00, 0.00, 0.00, 1, 0,  0,  47.5234650,-122.3485616,   126.0, 2023,  6,  3, 23, 15,  9,        0,        0,   0,   0,  23.1,  23.1,  23.1,  0,  0,  0,  0,  0,  0,  0,  0,  0,  0,  0,  0,  0,  0,  0,  0,  0,  0,  0,  0,  0,  0,  0,  0,  0,  0,  0,  0,  0,  0,  0,  0
6, 10988, 1,KM4LKS,    23.89, -44,   6,   -1.01, 100599.00,   60.61,   -0.59,   -0.09, 26.7, 0.00, 0.00, 4.08,   9.87,   0.41,   0.10,  -0.12,  -0.12,  -0.18,   0.04,  -0.41,   0.00,   2.00, 4.08, 0.00, 0.00, 0.00, 0.00, 1, 0,  0,  47.5234650,-122.3485616,   126.0, 2023,  6,  3, 23, 15,  9,        0,        0,   0,   0,  23.1,  23.1,  23.1,  0,  0,  0,  0,  0,  0,  0,  0,  0,  0,  0,  0,  0,  0,  0,  0,  0,  0,  0,  0,  0,  0,  0,  0,  0,  0,  0,  0,  0,  0,  0,  0
6, 10988, 1,KM4LKS,    24.63, -44,   7,   -1.01, 100599.00,   60.61,   -0.59,   -0.09, 26.7, 0.00, 0.00, 4.08,   9.87,   0.41,   0.10,  -0.12,  -0.12,  -0.18,   0.04,  -0.41,   0.00,   2.00, 4.08, 0.00, 0.00, 0.00, 0.00, 1, 0,  0,  47.5234650,-122.3485616,   126.0, 2023,  6,  3, 23, 15,  9,        0,        0,   0,   0,  23.1,  23.1,  23.1,  0,  0,  0,  0,  0,  0,  0,  0,  0,  0,  0,  0,  0,  0,  0,  0,  0,  0,  0,  0,  0,  0,  0,  0,  0,  0,  0,  0,  0,  0,  0,  0
6, 10988, 1,KM4LKS,    24.63, -44,   7,   -1.01, 100599.00,   60.61,   -0.59,   -0.09, 26.7, 0.00, 0.00, 4.08,   9.87,   0.41,   0.10,  -0.12,  -0.12,  -0.18,   0.04,  -0.41,   0.00,   2.00, 4.08, 0.00, 0.00, 0.00, 0.00, 1, 0,  0,  47.5234650,-122.3485616,   126.0, 2023,  6,  3, 23, 15,  9,        0,        0,   0,   0,  23.1,  23.1,  23.1,  0,  0,  0,  0,  0,  0,  0,  0,  0,  0,  0,  0,  0,  0,  0,  0,  0,  0,  0,  0,  0,  0,  0,  0,  0,  0,  0,  0,  0,  0,  0,  0
6, 10988, 1,KM4LKS,    24.87, -44,   5,   -1.51, 100598.00,   60.69,   -0.50,   -0.35, 26.7, 0.00, 0.00, 4.08,   9.86,   0.38,   0.04,   0.06,  -0.24,  -0.12,   0.04,  -0.41,   0.00,   2.00, 4.08, 0.00, 0.00, 0.00, 0.00, 1, 0,  0,  47.5234650,-122.3485616,   126.0, 2023,  6,  3, 23, 15,  9,        0,        0,   0,   0,  23.1,  23.1,  23.1,  0,  0,  0,  0,  0,  0,  0,  0,  0,  0,  0,  0,  0,  0,  0,  0,  0,  0,  0,  0,  0,  0,  0,  0,  0,  0,  0,  0,  0,  0,  0,  0
6, 10988, 1,KM4LKS,    24.90, -44,   7,   -1.51, 100598.00,   60.69,   -0.50,   -0.35, 26.7, 0.00, 0.00, 4.08,   9.86,   0.38,   0.04,   0.06,  -0.24,  -0.12,   0.04,  -0.41,   0.00,   2.00, 4.09, 0.00, 0.00, 0.00, 0.00, 1, 0,  0,  47.5234650,-122.3485616,   126.0, 2023,  6,  3, 23, 15,  9,        0,        0,   0,   0,  23.1,  23.1,  23.1,  0,  0,  0,  0,  0,  0,  0,  0,  0,  0,  0,  0,  0,  0,  0,  0,  0,  0,  0,  0,  0,  0,  0,  0,  0,  0,  0,  0,  0,  0,  0,  0
6, 10988, 1,KM4LKS,    25.63, -44,   5,   -1.51, 100598.00,   60.69,   -0.50,   -0.35, 26.7, 0.00, 0.00, 4.08,   9.86,   0.38,   0.04,   0.06,  -0.24,  -0.12,   0.04,  -0.41,   0.00,   2.00, 4.09, 0.00, 0.00, 0.00, 0.00, 1, 0,  0,  47.5234650,-122.3485616,   126.0, 2023,  6,  3, 23, 15,  9,        0,        0,   0,   0,  23.1,  23.1,  23.1,  0,  0,  0,  0,  0,  0,  0,  0,  0,  0,  0,  0,  0,  0,  0,  0,  0,  0,  0,  0,  0,  0,  0,  0,  0,  0,  0,  0,  0,  0,  0,  0
6, 10988, 1,KM4LKS,    25.63, -44,   8,   -1.51, 100598.00,   60.69,   -0.50,   -0.35, 26.7, 0.00, 0.00, 4.08,   9.86,   0.38,   0.04,   0.06,  -0.24,  -0.12,   0.04,  -0.41,   0.00,   2.00, 4.09, 0.00, 0.00, 0.00, 0.00, 1, 0,  0,  47.5234650,-122.3485616,   126.0, 2023,  6,  3, 23, 15,  9,        0,        0,   0,   0,  23.1,  23.1,  23.1,  0,  0,  0,  0,  0,  0,  0,  0,  0,  0,  0,  0,  0,  0,  0,  0,  0,  0,  0,  0,  0,  0,  0,  0,  0,  0,  0,  0,  0,  0,  0,  0
6, 10988, 1,KM4LKS,    25.88, -44,   6,   -3.02, 100606.00,   60.02,   -1.17,   -0.18, 26.7, 0.00, 0.00, 4.08,   9.87,   0.40,   0.07,   0.00,   0.00,  -0.18,   0.04,  -0.41,   0.00,   2.00, 4.09, 0.00, 0.00, 0.00, 0.00, 1, 0,  0,  47.5234650,-122.3485616,   126.0, 2023,  6,  3, 23, 15,  9,        0,        0,   0,   0,  23.1,  23.1,  23.1,  0,  0,  0,  0,  0,  0,  0,  0,  0,  0,  0,  0,  0,  0,  0,  0,  0,  0,  0,  0,  0,  0,  0,  0,  0,  0,  0,  0,  0,  0,  0,  0
6, 10988, 1,KM4LKS,    25.91, -44,   9,   -3.02, 100606.00,   60.02,   -1.17,   -0.18, 26.7, 0.00, 0.00, 4.08,   9.87,   0.40,   0.07,   0.00,   0.00,  -0.18,   0.04,  -0.41,   0.00,   2.00, 4.08, 0.00, 0.00, 0.00, 0.00, 1, 0,  0,  47.5234650,-122.3485616,   126.0, 2023,  6,  3, 23, 15,  9,        0,        0,   0,   0,  23.1,  23.1,  23.1,  0,  0,  0,  0,  0,  0,  0,  0,  0,  0,  0,  0,  0,  0,  0,  0,  0,  0,  0,  0,  0,  0,  0,  0,  0,  0,  0,  0,  0,  0,  0,  0
6, 10988, 1,KM4LKS,    26.63, -44,   9,   -3.02, 100606.00,   60.02,   -1.17,   -0.18, 26.7, 0.00, 0.00, 4.08,   9.87,   0.40,   0.07,   0.00,   0.00,  -0.18,   0.04,  -0.41,   0.00,   2.00, 4.08, 0.00, 0.00, 0.00, 0.00, 1, 0,  0,  47.5234650,-122.3485616,   126.0, 2023,  6,  3, 23, 15,  9,        0,        0,   0,   0,  23.1,  23.1,  23.1,  0,  0,  0,  0,  0,  0,  0,  0,  0,  0,  0,  0,  0,  0,  0,  0,  0,  0,  0,  0,  0,  0,  0,  0,  0,  0,  0,  0,  0,  0,  0,  0
6, 10988, 1,KM4LKS,    26.63, -44,   6,   -3.02, 100606.00,   60.02,   -1.17,   -0.18, 26.7, 0.00, 0.00, 4.08,   9.87,   0.40,   0.07,   0.00,   0.00,  -0.18,   0.04,  -0.41,   0.00,   2.00, 4.08, 0.00, 0.00, 0.00, 0.00, 1, 0,  0,  47.5234650,-122.3485616,   126.0, 2023,  6,  3, 23, 15,  9,        0,        0,   0,   0,  23.1,  23.1,  23.1,  0,  0,  0,  0,  0,  0,  0,  0,  0,  0,  0,  0,  0,  0,  0,  0,  0,  0,  0,  0,  0,  0,  0,  0,  0,  0,  0,  0,  0,  0,  0,  0
6, 10988, 1,KM4LKS,    26.89, -44,   7,   -1.51, 100607.00,   59.94,   -1.26,    0.10, 26.7, 0.00, 0.00, 4.08,   9.84,   0.40,   0.10,  -0.06,  -0.06,   0.18,   0.04,  -0.41,   0.00,   2.00, 4.08, 0.00, 0.00, 0.00, 0.00, 1, 0,  0,  47.5234650,-122.3485616,   126.0, 2023,  6,  3, 23, 15,  9,        0,        0,   0,   0,  23.1,  23.1,  23.1,  0,  0,  0,  0,  0,  0,  0,  0,  0,  0,  0,  0,  0,  0,  0,  0,  0,  0,  0,  0,  0,  0,  0,  0,  0,  0,  0,  0,  0,  0,  0,  0
6, 10988, 1,KM4LKS,    26.92, -44,   9,   -1.51, 100607.00,   59.94,   -1.26,    0.10, 26.7, 0.00, 0.00, 4.08,   9.84,   0.40,   0.10,  -0.06,  -0.06,   0.18,   0.04,  -0.41,   0.00,   2.00, 4.08, 0.00, 0.00, 0.00, 0.00, 1, 0,  0,  47.5234650,-122.3485616,   126.0, 2023,  6,  3, 23, 15,  9,        0,        0,   0,   0,  23.1,  23.1,  23.1,  0,  0,  0,  0,  0,  0,  0,  0,  0,  0,  0,  0,  0,  0,  0,  0,  0,  0,  0,  0,  0,  0,  0,  0,  0,  0,  0,  0,  0,  0,  0,  0
6, 10988, 1,KM4LKS,    27.63, -44,   8,   -1.51, 100607.00,   59.94,   -1.26,    0.10, 26.7, 0.00, 0.00, 4.08,   9.84,   0.40,   0.10,  -0.06,  -0.06,   0.18,   0.04,  -0.41,   0.00,   2.00, 4.08, 0.00, 0.00, 0.00, 0.00, 1, 0,  0,  47.5234650,-122.3485616,   126.0, 2023,  6,  3, 23, 15,  9,        0,        0,   0,   0,  23.1,  23.1,  23.1,  0,  0,  0,  0,  0,  0,  0,  0,  0,  0,  0,  0,  0,  0,  0,  0,  0,  0,  0,  0,  0,  0,  0,  0,  0,  0,  0,  0,  0,  0,  0,  0
6, 10988, 1,KM4LKS,    27.63, -44,   8,   -1.51, 100607.00,   59.94,   -1.26,    0.10, 26.7, 0.00, 0.00, 4.08,   9.84,   0.40,   0.10,  -0.06,  -0.06,   0.18,   0.04,  -0.41,   0.00,   2.00, 4.08, 0.00, 0.00, 0.00, 0.00, 1, 0,  0,  47.5234650,-122.3485616,   126.0, 2023,  6,  3, 23, 15,  9,        0,        0,   0,   0,  23.1,  23.1,  23.1,  0,  0,  0,  0,  0,  0,  0,  0,  0,  0,  0,  0,  0,  0,  0,  0,  0,  0,  0,  0,  0,  0,  0,  0,  0,  0,  0,  0,  0,  0,  0,  0
6, 10988, 1,KM4LKS,    27.63, -44,   7,   -1.51, 100607.00,   59.94,   -1.26,    0.10, 26.7, 0.00, 0.00, 4.08,   9.84,   0.40,   0.10,  -0.06,  -0.06,   0.18,   0.04,  -0.41,   0.00,   2.00, 4.08, 0.00, 0.00, 0.00, 0.00, 1, 0,  0,  47.5234650,-122.3485616,   126.0, 2023,  6,  3, 23, 15,  9,        0,        0,   0,   0,  23.1,  23.1,  23.1,  0,  0,  0,  0,  0,  0,  0,  0,  0,  0,  0,  0,  0,  0,  0,  0,  0,  0,  0,  0,  0,  0,  0,  0,  0,  0,  0,  0,  0,  0,  0,  0
6, 10988, 1,KM4LKS,    27.90, -44,   6,   -0.00, 100606.00,   60.02,   -1.17,    0.21, 26.8, 0.00, 0.00, 4.08,   9.83,   0.40,   0.06,   0.06,  -0.12,  -0.18,   0.04,  -0.41,   0.00,   2.00, 4.08, 0.00, 0.00, 0.00, 0.00, 1, 0,  0,  47.5234650,-122.3485616,   126.0, 2023,  6,  3, 23, 15,  9,        0,        0,   0,   0,  23.1,  23.1,  23.1,  0,  0,  0,  0,  0,  0,  0,  0,  0,  0,  0,  0,  0,  0,  0,  0,  0,  0,  0,  0,  0,  0,  0,  0,  0,  0,  0,  0,  0,  0,  0,  0
6, 10988, 1,KM4LKS,    27.93, -44,   9,   -0.00, 100606.00,   60.02,   -1.17,    0.21, 26.8, 0.00, 0.00, 4.07,   9.83,   0.40,   0.06,   0.06,  -0.12,  -0.18,   0.04,  -0.41,   0.00,   2.00, 4.08, 0.00, 0.00, 0.00, 0.00, 1, 0,  0,  47.5234650,-122.3485616,   126.0, 2023,  6,  3, 23, 15,  9,        0,        0,   0,   0,  23.1,  23.1,  23.1,  0,  0,  0,  0,  0,  0,  0,  0,  0,  0,  0,  0,  0,  0,  0,  0,  0,  0,  0,  0,  0,  0,  0,  0,  0,  0,  0,  0,  0,  0,  0,  0
6, 10988, 1,KM4LKS,    28.63, -44,   9,   -0.00, 100606.00,   60.02,   -1.17,    0.21, 26.8, 0.00, 0.00, 4.07,   9.83,   0.40,   0.06,   0.06,  -0.12,  -0.18,   0.04,  -0.41,   0.00,   2.00, 4.08, 0.00, 0.00, 0.00, 0.00, 1, 0,  0,  47.5234650,-122.3485616,   126.0, 2023,  6,  3, 23, 15,  9,        0,        0,   0,   0,  23.1,  23.1,  23.1,  0,  0,  0,  0,  0,  0,  0,  0,  0,  0,  0,  0,  0,  0,  0,  0,  0,  0,  0,  0,  0,  0,  0,  0,  0,  0,  0,  0,  0,  0,  0,  0
6, 10988, 1,KM4LKS,    28.63, -44,   8,   -0.00, 100606.00,   60.02,   -1.17,    0.21, 26.8, 0.00, 0.00, 4.07,   9.83,   0.40,   0.06,   0.06,  -0.12,  -0.18,   0.04,  -0.41,   0.00,   2.00, 4.08, 0.00, 0.00, 0.00, 0.00, 1, 0,  0,  47.5234650,-122.3485616,   126.0, 2023,  6,  3, 23, 15,  9,        0,        0,   0,   0,  23.1,  23.1,  23.1,  0,  0,  0,  0,  0,  0,  0,  0,  0,  0,  0,  0,  0,  0,  0,  0,  0,  0,  0,  0,  0,  0,  0,  0,  0,  0,  0,  0,  0,  0,  0,  0
6, 10988, 1,KM4LKS,    28.91, -44,   7,   -1.01, 100602.00,   60.36,   -0.84,    0.16, 26.8, 0.00, 0.00, 4.07,   9.85,   0.37,   0.07,   0.00,  -0.06,  -0.12,   0.04,  -0.41,   0.00,   2.00, 4.08, 0.00, 0.00, 0.00, 0.00, 1, 0,  0,  47.5234650,-122.3485616,   126.0, 2023,  6,  3, 23, 15,  9,        0,        0,   0,   0,  23.1,  23.1,  23.1,  0,  0,  0,  0,  0,  0,  0,  0,  0,  0,  0,  0,  0,  0,  0,  0,  0,  0,  0,  0,  0,  0,  0,  0,  0,  0,  0,  0,  0,  0,  0,  0
6, 10988, 1,KM4LKS,    28.94, -44,   8,   -1.01, 100602.00,   60.36,   -0.84,    0.16, 26.8, 0.00, 0.00, 4.08,   9.85,   0.37,   0.07,   0.00,  -0.06,  -0.12,   0.04,  -0.41,   0.00,   2.00, 4.07, 0.00, 0.00, 0.00, 0.00, 1, 0,  0,  47.5234650,-122.3485616,   126.0, 2023,  6,  3, 23, 15,  9,        0,        0,   0,   0,  23.1,  23.1,  23.1,  0,  0,  0,  0,  0,  0,  0,  0,  0,  0,  0,  0,  0,  0,  0,  0,  0,  0,  0,  0,  0,  0,  0,  0,  0,  0,  0,  0,  0,  0,  0,  0
6, 10988, 1,KM4LKS,    29.63, -44,   7,   -1.01, 100602.00,   60.36,   -0.84,    0.16, 26.8, 0.00, 0.00, 4.08,   9.85,   0.37,   0.07,   0.00,  -0.06,  -0.12,   0.04,  -0.41,   0.00,   2.00, 4.07, 0.00, 0.00, 0.00, 0.00, 1, 0,  0,  47.5234650,-122.3485616,   126.0, 2023,  6,  3, 23, 15,  9,        0,        0,   0,   0,  23.1,  23.1,  23.1,  0,  0,  0,  0,  0,  0,  0,  0,  0,  0,  0,  0,  0,  0,  0,  0,  0,  0,  0,  0,  0,  0,  0,  0,  0,  0,  0,  0,  0,  0,  0,  0
6, 10988, 1,KM4LKS,    29.63, -44,   8,   -1.01, 100602.00,   60.36,   -0.84,    0.16, 26.8, 0.00, 0.00, 4.08,   9.85,   0.37,   0.07,   0.00,  -0.06,  -0.12,   0.04,  -0.41,   0.00,   2.00, 4.07, 0.00, 0.00, 0.00, 0.00, 1, 0,  0,  47.5234650,-122.3485616,   126.0, 2023,  6,  3, 23, 15,  9,        0,        0,   0,   0,  23.1,  23.1,  23.1,  0,  0,  0,  0,  0,  0,  0,  0,  0,  0,  0,  0,  0,  0,  0,  0,  0,  0,  0,  0,  0,  0,  0,  0,  0,  0,  0,  0,  0,  0,  0,  0
6, 10988, 1,KM4LKS,    29.92, -44,   7,   -1.01, 100601.00,   60.44,   -0.75,   -0.13, 26.8, 0.00, 0.00, 4.08,   9.84,   0.40,   0.06,   0.18,  -0.31,   0.12,   0.04,  -0.41,   0.00,   2.00, 4.07, 0.00, 0.00, 0.00, 0.00, 1, 0,  0,  47.5234650,-122.3485616,   126.0, 2023,  6,  3, 23, 15,  9,        0,        0,   0,   0,  23.1,  23.1,  23.1,  0,  0,  0,  0,  0,  0,  0,  0,  0,  0,  0,  0,  0,  0,  0,  0,  0,  0,  0,  0,  0,  0,  0,  0,  0,  0,  0,  0,  0,  0,  0,  0
6, 10988, 1,KM4LKS,    29.95, -44,   9,   -1.01, 100601.00,   60.44,   -0.75,   -0.13, 26.8, 0.00, 0.00, 4.08,   9.84,   0.40,   0.06,   0.18,  -0.31,   0.12,   0.04,  -0.41,   0.00,   2.00, 4.07, 0.00, 0.00, 0.00, 0.00, 1, 0,  0,  47.5234650,-122.3485616,   126.0, 2023,  6,  3, 23, 15,  9,        0,        0,   0,   0,  23.1,  23.1,  23.1,  0,  0,  0,  0,  0,  0,  0,  0,  0,  0,  0,  0,  0,  0,  0,  0,  0,  0,  0,  0,  0,  0,  0,  0,  0,  0,  0,  0,  0,  0,  0,  0
6, 10988, 1,KM4LKS,    30.63, -44,  13,   -1.01, 100601.00,   60.44,   -0.75,   -0.13, 26.8, 0.00, 0.00, 4.08,   9.84,   0.40,   0.06,   0.18,  -0.31,   0.12,   0.04,  -0.41,   0.00,   2.00, 4.07, 0.00, 0.00, 0.00, 0.00, 1, 0,  0,  47.5234650,-122.3485616,   126.0, 2023,  6,  3, 23, 15,  9,        0,        0,   0,   0,  23.1,  23.1,  23.1,  0,  0,  0,  0,  0,  0,  0,  0,  0,  0,  0,  0,  0,  0,  0,  0,  0,  0,  0,  0,  0,  0,  0,  0,  0,  0,  0,  0,  0,  0,  0,  0
6, 10988, 1,KM4LKS,    30.63, -44,   9,   -1.01, 100601.00,   60.44,   -0.75,   -0.13, 26.8, 0.00, 0.00, 4.08,   9.84,   0.40,   0.06,   0.18,  -0.31,   0.12,   0.04,  -0.41,   0.00,   2.00, 4.07, 0.00, 0.00, 0.00, 0.00, 1, 0,  0,  47.5234650,-122.3485616,   126.0, 2023,  6,  3, 23, 15,  9,        0,        0,   0,   0,  23.1,  23.1,  23.1,  0,  0,  0,  0,  0,  0,  0,  0,  0,  0,  0,  0,  0,  0,  0,  0,  0,  0,  0,  0,  0,  0,  0,  0,  0,  0,  0,  0,  0,  0,  0,  0
